,Alternate Names,Population,cost,Province,city,latitude,longitude
0,"RTM,Ratehrdam,Roterdam,Roterdama,Roterdamas,Roterdami,Roterdamo,Roterdan,Roterdao,Roterdão,Roterntam,Roterodamum,Rotterdam,Rottérdam,Róterdam,Róterdan,loteleudam,lu te dan,rattartem,rotaradema,rotterudamu,rtrdam,rwtrdam,rwtrdm,rxt the xr dam,Ρότερνταμ,Ратэрдам,Ротердам,Роттердам,ראטערדאם,רוטרדם,راٹرڈیم,رتردام,روتردام,ܪܘܛܪܕܐܡ,रॉटरडॅम,ராட்டர்டேம்,รอตเทอร์ดาม,ရော်တာဒမ်မြို့,როტერდამი,ロッテルダム,鹿特丹,로테르담",598199.0,857.05,Zuid-Holland,Rotterdam,51.9225,4.47917
1,"Schidamas,Schiedam,Skhidam,Skiedam,Sxidam,askhydam,si xi dan,ski dam,Схидам,Շխիդամ,اسخیدام,สกีดาม,斯希丹",75438.0,857.05,Zuid-Holland,Schiedam,51.91917,4.38889
2,"Barendrekht,Barendrext,ba lun de lei he te,baryndrykht,Барендрехт,Բարենդրեխտ,بارن‌درخت,باريندريخت,巴伦德雷赫特",38672.0,847.63,Zuid-Holland,Barendrecht,51.85667,4.53472
3,"Capelle,Capelle a/d IJssel,Capelle a/d Yssel,Capelle aan de IJssel,Capelle aan de Yssel,Capelle aan den IJssel,Capelle aan den Ijssel,Capelle aan den Yssel,Kapele an den Eysel,Kapelle,Kapelle-an-den-Ehjssel,ai se er he pan ka pei lei,ka pe lex xan dex xi seil,kabyla an dn aysl,kapelleoanden-eiseol,Капелле-ан-ден-Эйссел,Կապելե ան դեն Էյսել,كابيلا آن دن آيسل,کاپله ان‌دن ایسل,กาเปเลออานเดอไอเซิล,艾瑟尔河畔卡佩勒,카펠러안덴에이설",65255.0,842.92,Zuid-Holland,Capelle aan den IJssel,51.92917,4.57778
4,Hoogvliet Rotterdam,34950.0,835.85,Zuid-Holland,Hoogvliet Rotterdam,51.86333,4.3625
5,"Vlaardinge,Vlaardingen",73798.0,833.5,Zuid-Holland,Vlaardingen,51.9125,4.34167
6,"Bergsenkhuk,Бергсенхук",16579.0,831.14,Zuid-Holland,Bergschenhoek,51.99,4.49861
7,None,20189.0,826.43,Zuid-Holland,Berkel en Rodenrijs,51.99313,4.47865
8,"Ridderkerk,Риддеркерк",45189.0,824.08,Zuid-Holland,Ridderkerk,51.8725,4.60278
9,None,6114.0,814.66,Zuid-Holland,Krimpen aan de Lek,51.8931,4.6275
10,Spijkenisse,74988.0,877.61,Zuid-Holland,Spijk,51.845,4.32917
11,None,None,800.53,Zuid-Holland,Delfgauw,52.00958,4.39564
12,"Pijnacker,Pynakker",18695.0,798.17,Zuid-Holland,Pijnacker,52.01954,4.42946
13,"Skhipljojden,Схиплёйден",3635.0,795.82,Zuid-Holland,Schipluiden,51.97583,4.31389
14,"Hendrik-Ido-Ambaxt,Khendrik-Ido-Ambakht,heng de li ke-yi duo-a mu ba he te,hndryk- aydw- ambakht,Хендрик-Идо-Амбахт,Հենդրիկ-Իդո-Ամբախտ,هندريك- إيدو- أمباخت,亨德里克－伊多－阿姆巴赫特",21027.0,793.46,Zuid-Holland,Hendrik-Ido-Ambacht,51.84417,4.63889
15,None,72740.0,809.95,Zuid-Holland,Spijkenisse,51.8333,4.3167
16,"Delft,Ntelpht,dai er fu te,derufuto shi,dlpt,Ντελφτ,Делфт,דלפט,デルフト市,代尔夫特",95060.0,788.75,Zuid-Holland,Delft,52.00667,4.35556
17,None,12420.0,810.86,Zuid-Holland,Rozenburg,51.90417,4.24861
18,Maassluis,32780.0,814.02,Zuid-Holland,Maassluis,51.92333,4.25
19,None,7932.0,817.18,Zuid-Holland,Moordrecht,51.9861,4.6681
20,"Zeutermaer,Zoetermeer,zwtrmyyr,זוטרמייר",115845.0,839.29,Zuid-Holland,Zoetermeer,52.0575,4.49306
21,"Papendrekht,Papendrext,pa peng de lei he te,Папендрехт,Պապենդրեխտ,帕彭德雷赫特",31621.0,838.03,Zuid-Holland,Papendrecht,51.83167,4.6875
22,"Doardt,Dordracum,Dordrech,Dordrecht,Dordrechtas,Dordrehta,Dordrehto,Dordreque,Dordreĥto,Dordt,Dort,Ntorntrecht,dorutorehito,Ντόρντρεχτ,ドルトレヒト",119260.0,835.52,Zuid-Holland,Dordrecht,51.81,4.67361
23,None,1808.0,841.75,Zuid-Holland,Zuidland,51.8219,4.2581
24,None,47299.0,847.98,Zuid-Holland,Rijswijk,52.03634,4.32501
25,None,None,879.15,Zuid-Holland,Wateringen,52.02351,4.27459
26,None,25338.0,916.54,Zuid-Holland,Waddinxveen,52.045,4.65139
27,"Voorburg,fwrbwrkh,Воорбург,فوربورخ",38000.0,941.47,Zuid-Holland,Voorburg,52.07417,4.35972
28,None,39567.0,856.64,Zuid-Holland,Leidschendam,52.0833,4.4
29,"Chaounta,Gauda,Gaudanum,Gouda,Guda,Quda,ga'uda,gauda,ghwda,ghwdt,goda,hao da,hauda,kea da,khawda,Χάουντα,Гауда,Գաուդա,خاودا,غودا,غودة,गउडा,గౌడ,เกาดา,გაუდა,ゴーダ,豪达,하우다",71952.0,771.8,Zuid-Holland,Gouda,52.01667,4.70833
30,"Bloemendaal,Bloemendaalseweg",9900.0,779.58,Zuid-Holland,Bloemendaal,52.02878,4.6944
31,"Brile,Brille,Bryle,Den Briel,brylh,bu li lei,Брилле,Брыле,Брілле,Բրիլե,بريله,布里勒",2765.0,792.54,Zuid-Holland,Brielle,51.90167,4.1625
32,"'s-Gravenhage,A Haia,An Haig,An Háig,Chage,D'n Haog,De Haach,Den Haag,Gaaga,HAG,Haag,Hag,Haga,Hago,Hague,Hága,Hāga,Khag,Khaga,L'Aia,La Haia,La Haya,La Haye,Lahey,The Hague,den・hagu,haaga,hai ya,heigeu,lahay,lahh,Χάγη,Гаага,Хаг,Хага,האג,لاهاي,لاهه,ჰააგა,デン・ハーグ,海牙,헤이그",474292.0,808.1,Zuid-Holland,Den Haag,52.07667,4.29861
33,"Boskop,bo si ke pu,Боскоп,Բոսկոպ,博斯科普",15222.0,809.39,Zuid-Holland,Boskoop,52.075,4.65556
34,None,11366.0,810.67,Zuid-Holland,Hazerswoude-Dorp,52.1,4.5833
35,"Slidrekht,Sliedrech,Слидрехт",23854.0,811.96,Zuid-Holland,Sliedrecht,51.82083,4.77639
36,"lei wei ke,雷韦克",12817.0,814.53,Zuid-Holland,Reeuwijk,52.04667,4.725
37,ہاسٹریچٹ,4500.0,815.81,Zuid-Holland,Haastrecht,52.00074,4.77639
38,None,19190.0,819.67,Zuid-Holland,'s-Gravenzande,52.00167,4.16528
39,Zoeterwoude,4230.0,820.95,Zuid-Holland,Zoeterwoude,52.12,4.49583
40,None,3370.0,823.52,Noord-Brabant,Willemstad,51.6919,4.4378
41,"Monster,Монстер",11580.0,828.66,Zuid-Holland,Monster,52.02583,4.175
42,"Hoek van Holland,Hook of Holland,Khoek van Kholland,Khuk-van-Kholland,Oek van Olland,he lan jiao gang,Хоек ван Холланд,Хук-ван-Холланд,荷蘭角港",9400.0,832.52,Zuid-Holland,Hoek van Holland,51.9775,4.13333
43,None,22468.0,831.23,Zuid-Holland,Voorschoten,52.1275,4.44861
44,"Helefutslaus,Hellevoet,Khelevutslojs,Khellevutsljojs,he lei fu ci lao si,hylyfwtslaws,Хелевутслојс,Хеллевутслёйс,Հելեֆուտսլաուս,هيليفوتسلاوس,赫勒富茨劳斯",21927.0,835.09,Zuid-Holland,Hellevoetsluis,51.83333,4.13333
45,None,None,849.22,Zuid-Holland,Hazerswoude-Rijndijk,52.1292,4.5931
46,None,25353.0,854.36,Zuid-Holland,Wassenaar,52.14583,4.40278
47,"Alfen,Alphen,Alphen a/d Rijn,Alphen aan de Rijn,Alphen aan den Rijn,Alphen aan der Rijn",70251.0,864.64,Zuid-Holland,Alphen aan den Rijn,52.12917,4.65546
48,"Rockanje,Rokanje,Rokkanje",1275.0,867.21,Zuid-Holland,Rockanje,51.87167,4.07083
49,"Lajden,Leida,Leiden,Leidenas,Leidene,Leie,Leien,Leinten,Lejda,Lejdehn,Lejden,Lejdeni,Leyde,Leyden,Lugdunum,Lugdunum Batavorum,Lèida,la'idena,lai dun,laitan,laydn,laydyn,leideni,leideon,li dein,lydn,lyydn,raiden,Λέιντεν,Лайден,Лајден,Лейден,Лейдэн,Լեյդեն,ליידן,لائڈن,لايدن,لايدين,لیدن,লাইডেন,லைடன்,ไลเดิน,ლეიდენი,ライデン,莱顿,레이던",119713.0,868.5,Zuid-Holland,Leiden,52.15833,4.49306
50,"Lejderdorp,Lejderdorpe,Leyderdorp,lai de duo pu,laydrdwrb,Лейдердорп,Лейдердорпе,Լեյդերդորպ,لايدردورب,莱德多普",25966.0,868.87,Zuid-Holland,Leiderdorp,52.15833,4.52917
51,None,18051.0,869.24,Zuid-Holland,Hardinxveld-Giessendam,51.83,4.87
52,Zevenbergschehoek,1245.0,871.48,Noord-Brabant,Zevenbergschen Hoek,51.6725,4.67917
53,"Oegstgeest,Oestgeest",21149.0,874.08,Zuid-Holland,Oegstgeest,52.18,4.46944
54,"LID,Valkenburg",3925.0,874.45,Zuid-Holland,Valkenburg,52.18,4.43194
55,"Verkendam,Werkendam,Веркендам",11204.0,875.2,Noord-Brabant,Werkendam,51.81,4.89444
56,"Reinsburgum,Rynsburch",7990.0,876.69,Zuid-Holland,Rijnsburg,52.19,4.44167
57,"Katwijk,Katwijk a/d Rijn,Katwijk aan de Rijn,Katwijk aan den Rijn",5940.0,877.43,Zuid-Holland,Katwijk,52.19417,4.42222
58,"Varmond,Вармонд",4275.0,878.17,Zuid-Holland,Warmond,52.19667,4.50278
59,None,None,878.55,Zuid-Holland,Oud Ade,52.1916,4.5666
60,None,1468.0,879.29,Zuid-Holland,Hoornaar,51.8767,4.9469
61,"Die Meede,میڈ، نیدرلینڈز",11795.0,881.52,Noord-Brabant,Made,51.67667,4.79306
62,"Verden,Vurden,Woerden,wu er deng,Верден,Вурден,Վուրդեն,武爾登",48431.0,883.38,Utrecht,Woerden,52.085,4.88333
63,None,None,884.13,Zuid-Holland,Kaag,52.21326,4.55833
64,"Geertruidenberg,Getrudenberg,Mont-Sainte-Gertrude,Xeyrtraudenberx,hai te lei yi deng bei he,khyrtrawdnbyrkh,Гетруденберг,Խեյրտրաուդենբերխ,خيرتراودنبيرخ,海特勒伊登貝赫",20941.0,886.36,Noord-Brabant,Geertruidenberg,51.70167,4.85694
65,"Vorkhaut,phuraha'uta,Ворхаут,फूरहाउट",4670.0,886.73,Zuid-Holland,Voorhout,52.22167,4.48472
66,None,None,887.1,Utrecht,Meerkerk,51.89966,4.98477
67,"Chorin'chem,Garkum,Gorcum,Goricum,Gorinkhem,Gorkum,Xorinxem,holinheom,horukumu,huo lin he mu,khwrykwm,Χόρινχεμ,Горинхем,Ґорінхем,Խորինխեմ,خوريكوم,ホルクム,霍林赫姆,호린험",34736.0,887.85,Zuid-Holland,Gorinchem,51.83652,4.97243
68,None,None,888.59,Noord-Holland,Buitenkaag,52.21994,4.56023
69,"Sassenkhejm,Сассенхейм",15510.0,889.34,Zuid-Holland,Sassenheim,52.225,4.52222
70,None,None,889.71,Noord-Brabant,Oudenbosch,51.5892,4.5239
71,None,3007.0,887.1,Zuid-Holland,Meerkerk,51.92,4.9942
72,Noordwijk,24363.0,892.31,Zuid-Holland,Noordwijk,52.234,4.44474
73,None,None,892.68,Utrecht,Benschop,52.00901,4.9789
74,None,1400.0,894.17,Utrecht,Nieuwland,51.90167,5.01389
75,Steenbergen,23582.0,894.92,Noord-Brabant,Steenbergen,51.58417,4.31944
76,None,None,895.85,Zuid-Holland,Noorden,52.16627,4.82709
77,None,3100.0,896.78,Zeeland,Bruinisse,51.66167,4.09444
78,"Alddoarp,Auddorp,Ouwdurp,Ауддорп",5930.0,898.27,Zuid-Holland,Ouddorp,51.81167,3.93472
79,None,None,898.08,Noord-Holland,Leimuiderbrug,52.23114,4.66964
80,Sint Filipsland,2095.0,899.38,Zeeland,Sint Philipsland,51.61667,4.16528
81,None,43774.0,900.87,Noord-Brabant,Etten-Leur,51.5706,4.6356
82,None,1575.0,901.24,Noord-Brabant,Zegge,51.55667,4.51806
83,None,11875.0,902.36,Zuid-Holland,Noordwijkerhout,52.26167,4.49306
84,"Oosterhout,Osterkhout,ao si te hao te,Остерхоут,奧斯特豪特",53107.0,903.1,Noord-Brabant,Oosterhout,51.645,4.85972
85,"Lisse,Лиссе",22321.0,903.47,Zuid-Holland,Lisse,52.26,4.55694
86,Rijswijk (NB),1862.0,847.98,Noord-Brabant,Rijswijk,51.7975,5.025
87,None,7230.0,907.94,Noord-Brabant,Teteringen,51.60917,4.82083
88,"IJselstein,Issel'stejn,Иссельстейн",33886.0,908.31,Utrecht,IJsselstein,52.02,5.04306
89,None,9250.0,908.68,Noord-Holland,Kudelstaart,52.23417,4.75139
90,None,None,909.43,Noord-Holland,Nieuw-Vennep,52.26475,4.63356
91,"Breda,Breda khot,Brehda,Brenta,Brigita,Bréda,GLZ,be rda,beuleda,brda,brdh,breda,bryda,bu lei da,bureda,Μπρέντα,Бреда,Бреда хот,Брэда,Բրեդա,ברדה,بردا,بريدا,بریڈا,เบรดา,ბრედა,ブレダ,布雷达,브레다",167673.0,909.8,Noord-Brabant,Breda,51.58656,4.77596
92,"Roosendaal,Rosendael,Rozendael,Rozendal,Rozendal',ZYO,losendal,luo sen da er,ro sen dal,rozendaru,rwsyndal,Розендал,Розендаль,روزن‌دال,روسيندال,โรเซนดาล,ローゼンダール,罗森达尔,로센달",77725.0,909.93,Noord-Brabant,Roosendaal,51.53083,4.46528
93,'s Gravemoer,2315.0,910.16,Noord-Brabant,'s Gravenmoer,51.65594,4.94076
94,"Mijdrecht,Mudrecht,Müdrecht",15230.0,910.19,Utrecht,Mijdrecht,52.20667,4.8625
95,None,None,910.32,Utrecht,De Meern,52.08118,5.03636
96,None,4600.0,910.42,Noord-Brabant,Wouw,51.52167,4.39028
97,Hillegom,18419.0,910.45,Zuid-Holland,Hillegom,52.29083,4.58333
98,None,5715.0,910.48,Utrecht,Wilnis,52.19667,4.89722
99,None,None,910.64,Gelderland,Poederoijen,51.78743,5.07984
100,"Aalsmeer,Alsmer,QFA,a er si mei er,Алсмер,阿尔斯梅尔",22991.0,910.61,Noord-Holland,Aalsmeer,52.25917,4.75972
101,"Nieuwegein,Nieuwegen",61489.0,910.81,Utrecht,Nieuwegein,52.02917,5.08056
102,"Authorn,Ehjtkhorn,Uithoorn,Uthoarn,ao te huo lun,awthwrn,Эйтхорн,Աուտհորն,آوتهورن,奥特霍伦",26846.0,910.78,Noord-Holland,Uithoorn,52.2375,4.82639
103,None,1965.0,910.84,Noord-Brabant,Dorst,51.59,4.85694
104,None,None,910.9,Zuid-Holland,De Zilk,52.30237,4.54319
105,None,9850.0,910.97,Noord-Brabant,Halsteren,51.52834,4.26785
106,"Dongen,dwnjn,Донген,Դոնգեն,دونجن",25464.0,911.0,Noord-Brabant,Dongen,51.62667,4.93889
107,"Tholen,Tole,Tolen,Толен",7475.0,911.07,Zeeland,Tholen,51.53167,4.22083
108,None,5360.0,911.1,Noord-Brabant,Bavel,51.56583,4.83056
109,Ulvenhout,4520.0,911.2,Noord-Brabant,Ulvenhout,51.54907,4.79931
110,None,4140.0,911.3,Noord-Brabant,Rijsbergen,51.5175,4.69722
111,None,None,911.39,Noord-Brabant,Sprang-Capelle,51.67053,5.0253
112,"Hoofddorp,QHZ",132734.0,911.52,Noord-Holland,Hoofddorp,52.3025,4.68889
113,None,2340.0,911.59,Utrecht,Vinkeveen,52.21507,4.93372
114,None,None,911.62,Noord-Brabant,Molenschot,51.57321,4.88246
115,"Maarsen,marsyn,مارسین",39675.0,911.65,Utrecht,Maarssen,52.13917,5.04167
116,Reijen,16230.0,911.68,Noord-Brabant,Rijen,51.59083,4.91944
117,"beuloekeolleon,ბროიკელენი,브뢰컬런",14498.0,911.72,Utrecht,Breukelen,52.17417,5.00139
118,Bennebroek,5140.0,911.75,Noord-Holland,Bennebroek,52.32083,4.59861
119,None,1200.0,912.04,Utrecht,Everdingen,51.965,5.15556
120,"Bergen op Zoom,Bergen-op-Zom,WOE,Берген-оп-Зом",66256.0,912.14,Noord-Brabant,Bergen op Zoom,51.495,4.29167
121,Waalwijk,45610.0,912.27,Noord-Brabant,Waalwijk,51.6825,5.07083
122,None,None,912.37,Noord-Brabant,Kaatsheuvel,51.6667,5.0667
123,"Gemeente Utrecht,Magaalada Utrecht,Outrechte,Owtrext,Traiectum ad Rhenum,UTC,Utert,Utrech,Utrecht,Utrechtas,Utrehkht,Utreht,Utrehta,Utrehto,Utrei,Utrekht,Utrekht khot,Utreque,Utrext,Utreĥto,awtrkht,utrekhta,witeuleheuteu,wu de lei zhi,yu the rkt,yutorehito,ywtrkht,ywtrykht,Ουτρέχτη,Утрехт,Утрехт хот,Утрэхт,Ուտրեխտ,אוטרכט,أوترخت,اوترخت,یوترخت,یوتریخت,ܐܘܛܪܝܟܛ,उट्रेख्त,ยูเทรกต์,ယူးထရက်မြို့,უტრეხტი,ユトレヒト,乌得勒支,烏德勒支,위트레흐트",290529.0,912.4,Utrecht,Utrecht,52.09083,5.12222
124,"Hauten,hao teng,hauten,hauteon,hawtn,hwtn,Հաուտեն,هاوتن,هوتن,ハウテン,豪滕,하우턴",1335.0,912.84,Utrecht,Houten,52.02833,5.16806
125,"Gemstede,Heemstede,Hemstede,Hemstedė,Heymsteyde,Hiemstee,Khemstede,hai mu si tai de,heimseutedeo,hemusutede,hymstydh,Гемстеде,Хемстеде,Հեյմստեյդե,هيمستيده,ヘームステーデ,海姆斯泰德,헤임스테더",25562.0,913.5,Noord-Holland,Heemstede,52.34992,4.62301
126,None,None,913.39,Utrecht,Loenen aan de Vecht,52.20983,5.02156
127,"Amstelveen,Amstelven,Amstelveyn,Amstelvin,Nieuwer Amstel,a mu si te er fen,amseutelbein,amusuterufen,Амстелвен,Амстелвин,Ամստելվեյն,אמסטלפיין,آمستل‌فین,アムステルフェーン,阿姆斯特尔芬,암스텔베인",79639.0,913.83,Noord-Holland,Amstelveen,52.30083,4.86389
128,None,None,918.99,Noord-Holland,Aerdenhout,52.36299,4.59091
129,None,None,929.48,Noord-Holland,Bentveld,52.36577,4.57056
130,None,1010.0,934.69,Utrecht,Baambrugge,52.24583,4.98889
131,None,6300.0,950.34,Noord-Brabant,Gilze,51.54417,4.94028
132,"Landvoort,Zandvoort,Зандвоорт",16868.0,965.99,Noord-Holland,Zandvoort,52.37125,4.53306
133,"Loon op Zand,Venloen op Zand",23000.0,822.94,Noord-Brabant,Venlo,51.6275,5.075
134,"Culemborg,Culembourg,Kuilenburg,Kulemborg,Kulemborx,kwlmbwrkh,qu lun bo he,Кулемборг,Կուլեմբորխ,كولمبورخ,屈伦博赫",26826.0,841.73,Gelderland,Culemborg,51.955,5.22778
135,"Auderkerk kaj Amstel,Ouder Amstel,Ouderkerk,Ouderkerk Aan Den Amstel,Ouderkerk a/d Amstel,Ouderkerk aan de Amstel,Ouderkerk-sur-lAmstel,Аудеркерк кај Амстел",7955.0,847.99,Noord-Holland,Ouderkerk aan de Amstel,52.29504,4.90746
136,None,1373.0,864.69,Utrecht,Vreeland,52.2297,5.0311
137,None,None,868.86,Noord-Holland,Badhoevedorp,52.33888,4.78447
138,"Abcoude,Abkoude,a bu kao de,abkad,abkawdh,أبكاوده,ابکاد,阿布考德",6920.0,885.56,Utrecht,Abcoude,52.2725,4.96944
139,"De Bilt,Nte Bilt,dy bylt,Ντε Μπιλτ,Դե Բիլտ,دي بيلت",8945.0,904.35,Utrecht,De Bilt,52.11,5.18056
140,None,None,910.61,Noord-Holland,Loosdrecht,52.2026,5.09056
141,"Chaarlem,Garlem,Haarlem,Haarlemo,Haarlim,Harlem,Harlema,Harlemas,Harlemum,Hārlema,Khaarlem,Kharlem,ha lei mu,haarlemi,haleulleom,harlm,haruremu,Χάαρλεμ,Гарлем,Хаарлем,Харлем,Հարլեմ,הארלם,هارلم,ہارلم,ܗܐܪܠܡ,ჰაარლემი,ハールレム,哈勒姆,하를럼",147590.0,916.87,Noord-Holland,Haarlem,52.38084,4.63683
142,"Vonsdrekht,Woensdrecht,Вонсдрехт",1340.0,886.21,Noord-Brabant,Woensdrecht,51.42897,4.30355
143,None,5810.0,864.31,Noord-Brabant,Hoogerheide,51.42417,4.325
144,Colijnsplaat,1485.0,846.8,Zeeland,Colijnsplaat,51.59917,3.84861
145,None,5241.0,839.5,Noord-Holland,Nederhorst den Berg,52.2567,5.0458
146,None,None,824.9,Utrecht,Bilthoven,52.1283,5.1986
147,"Seist,Zajst,Zeist,Zejst,Zeyst,jeiseuteu,zai si te,zaisuto,zayst,Зајст,Зейст,Զեյստ,زايست,زایست,ザイスト,宰斯特,제이스트",60949.0,807.38,Utrecht,Zeist,52.09,5.23333
148,Bloemendaal,3905.0,779.58,Noord-Holland,Bloemendaal,52.4025,4.62222
149,None,15899.0,839.93,Noord-Brabant,Vlijmen,51.6953,5.2119
150,None,2350.0,777.59,Noord-Holland,Halfweg,52.3825,4.75417
151,Amsterdam-Duivendrecht,4720.0,926.73,Noord-Holland,Amsterdam,52.32941,4.93964
152,None,None,872.31,Noord-Holland,'s-Graveland,52.23832,5.12172
153,None,18553.0,867.36,Utrecht,Driebergen-Rijsenburg,52.05333,5.28056
154,"Cilburg,Tilburch,Tilburg,Tilburga,Tilburgas,Tilburgo,Tilia,di er bao,thi lburk,tilbwileuheu,tiruburufu,tylbwrkh,Тилбург,Тілбург,Цілбург,تیلبورخ,ٹلبرگ,ทิลบืร์ก,ტილბურგი,ティルブルフ,蒂尔堡,틸뷔르흐",199613.0,862.41,Noord-Brabant,Tilburg,51.55551,5.0913
155,"Diemen,Diemerbrug,Dijmen,Dimen,dymyn,Диймен,Димен,Դիմեն,ديمين",24361.0,897.04,Noord-Holland,Diemen,52.33964,4.96256
156,"Vesp,Veysp,Weesp,fysb,wei si pu,Весп,Վեյսպ,فيسب,韋斯普",17802.0,921.78,Noord-Holland,Weesp,52.3075,5.04167
157,"Goirl,Goirle,Goorle,Gorle,Xorle,khwrla,Гоирл,Горле,Խորլե,خورلا",22646.0,925.0,Noord-Brabant,Goirle,51.52083,5.06667
158,None,None,922.4,Noord-Holland,Santpoort-Noord,52.43388,4.63255
159,"Hilfertsom,Hilversum,Hilvertsheim,Khilversjum,Khilversum,QYI,hylfrswm,xi er fu se mu,Хилверсум,Хилверсюм,Հիլվերսում,هيلفرسوم,هیلفرسوم,希爾弗瑟姆",83640.0,921.53,Noord-Holland,Hilversum,52.22333,5.17639
160,"Chous,Goes,Gus,Gusas,hu si,khws,Χους,Гус,خوس,胡斯",36931.0,911.13,Zeeland,Goes,51.50417,3.88889
161,"Oisterwijk,Ojstervejk,Oosterwijk,Ойстервейк",25980.0,895.53,Noord-Brabant,Oisterwijk,51.57917,5.18889
162,"Doorn,Dorn,Доорн,Дорн",10330.0,890.33,Utrecht,Doorn,52.03343,5.34571
163,"'s Bosch,'s-Hertogenbosch,Bois-le-Duc,Bolduque,Boscoducale,De Bosk,Den Bosch,Hertogenbosch,Herzogenbusch,Khertogenbos,Oeteldonk,Silva Ducis,Хертогенбос,’s-Hertogenbosch",134520.0,886.86,Noord-Brabant,'s-Hertogenbosch,51.69917,5.30417
164,"Bjussjum,Bussum,Busum,bu sen,bwswm,Бюссюм,Բուսում,بوسوم,布森",31334.0,891.31,Noord-Holland,Bussum,52.27333,5.16111
165,None,6223.0,892.8,Noord-Holland,Muiden,52.33,5.06944
166,"Ehjmjojden,IJmond,Imuiden,Ymuiden,Ĳmuiden,Эймёйден",31925.0,894.28,Noord-Holland,IJmuiden,52.4603,4.61048
167,"Vjugt,Vuxt,fwkht,Вюгт,Վուխտ,فوخت",25043.0,897.25,Noord-Brabant,Vught,51.65333,5.2875
168,None,5835.0,898.73,Noord-Brabant,Moergestel,51.55,5.1833
169,None,1425.0,900.22,Gelderland,Ophemert,51.845,5.3875
170,"Sust,Zoest,swst,Зоест,Суст,Սուստ,سوست",45021.0,901.7,Utrecht,Soest,52.17333,5.29167
171,"Zaandam,Zandam,Zandamas,jandam,zan dan,zan dm,zandamu,Заандам,Зандам,Զանդամ,زان دم,ザーンダム,赞丹,잔담",71708.0,904.67,Noord-Holland,Zaandam,52.43854,4.82643
172,Naarden,17115.0,907.63,Noord-Holland,Naarden,52.29583,5.1625
173,None,None,913.57,Noord-Holland,Velsen-Noord,52.47464,4.63665
174,None,1605.0,915.05,Noord-Holland,Muiderberg,52.32583,5.12083
175,"Laren,la lun,laryn,raren,Ларен,Լարեն,لارين,لارین,ラーレン,拉倫",11508.0,918.02,Noord-Holland,Laren,52.25667,5.22778
176,None,31219.0,920.25,Noord-Brabant,Rosmalen,51.7167,5.3667
177,None,8335.0,923.22,Noord-Holland,Assendelft,52.4667,4.75
178,"Baan,Baarn,Barn,baleun,barn,barun,Баан,Барн,Բարն,بارن,バールン,바른",24584.0,925.44,Utrecht,Baarn,52.21167,5.2875
179,"Berverwyk,Bevervejk,Beverwijk,Beverwyk,Beyverveyk,byfyrfayk,Бевервейк,Բեյվերվեյկ,بيفيرفايك",37585.0,928.41,Noord-Holland,Beverwijk,52.48333,4.65694
180,"Landsmeer,Landsmer,Landsmeyr,Lansmar,Lânsmar,landsmyr,Ландсмер,Լանդսմեյր,لاندسمير,لانڈسمیر",1800.0,934.34,Noord-Holland,Landsmeer,52.43083,4.91528
181,None,2095.0,937.31,Noord-Holland,Wijk aan Zee,52.4936,4.59409
182,None,None,938.8,Noord-Holland,Koog aan de Zaan,52.46205,4.80714
183,None,9113.0,940.28,Utrecht,Eemnes,52.2539,5.2572
184,None,None,941.76,Zeeland,Heinkenszand,51.473,3.8128
185,"Blaricum,Blarikjum,Blarikum,blarykwm,bu la li ke mu,Бларикюм,Բլարիկում,بلاريكوم,布拉里克姆",5060.0,943.25,Noord-Holland,Blaricum,52.2725,5.24167
186,"zan dai ke,zand jk,زاند جک,赞代克",9040.0,947.7,Noord-Holland,Zaandijk,52.47494,4.80686
187,"Lit,Lith",2895.0,949.18,Noord-Brabant,Lith,51.80583,5.43889
188,None,None,961.05,Zeeland,Kloosterzande,51.36756,4.01051
189,Huizen,45292.0,965.51,Noord-Holland,Huizen,52.29917,5.24167
190,"Amersfoort,Amersfort,Amersforto,QYM,Амерсфорт",139914.0,966.99,Utrecht,Amersfoort,52.155,5.3875
191,None,None,963.06,Noord-Holland,Krommenie,52.49546,4.76649
192,"Bokstel,Boxtel,bwkstl,Бокстел,Բոքստել,بوكستل",29511.0,943.41,Noord-Brabant,Boxtel,51.59083,5.32917
193,Berlikum,4250.0,939.48,Noord-Brabant,Berlicum,51.6775,5.4
194,None,None,927.69,Noord-Holland,Wormerveer,52.49522,4.78766
195,None,11470.0,915.9,Noord-Holland,Wormer,52.4972,4.8089
196,None,None,900.17,Zeeland,'s-Heerenhoek,51.45361,3.76904
197,None,None,896.24,Utrecht,Eemdijk,52.25391,5.32928
198,"Hamersveld,Leusden,Leusden-Centrum,Леусден",29215.0,892.31,Utrecht,Leusden,52.1325,5.43194
199,None,1001.0,888.38,Noord-Holland,Jisp,52.5,4.8333
200,"Autxeyst,Ehjtgest,Uitgeest,Utgeast,awtkhyst,Эйтгест,Աուտխեյստ,آوتخيست",11794.0,876.59,Noord-Holland,Uitgeest,52.52917,4.70972
201,"Erremu,a ne mo yi deng,阿訥默伊登",5075.0,872.66,Zeeland,Arnemuiden,51.50167,3.675
202,None,2433.0,868.73,Utrecht,Stoutenburg,52.1539,5.4325
203,None,3470.0,856.94,Gelderland,Lienden,51.94833,5.51806
204,"Bunschoten-Spakenburg,Spakenburch,Spakenburg",4375.0,843.22,Utrecht,Bunschoten-Spakenburg,52.25,5.36667
205,Almere,176432.0,845.15,Flevoland,Almere,52.37025,5.21413
206,"Monnikendam,Monnikkendam,meng ni ken dan,Монниккендам,蒙尼肯丹",2015.0,841.29,Noord-Holland,Monnickendam,52.45833,5.0375
207,None,None,829.71,Noord-Brabant,Oost West en Middelbeers,51.47013,5.25563
208,Nieuw-en Sint Joosland,1140.0,820.06,Zeeland,Nieuw- en Sint Joosland,51.48333,3.65694
209,None,None,818.12,Zeeland,Vogelwaarde,51.32492,3.97234
210,"Os,Oss,Oss i Nederland,ao si,osu,Осс,オス,奥斯",76430.0,814.26,Noord-Brabant,Oss,51.765,5.51806
211,None,3350.0,810.4,Zeeland,Klarenbeek,51.50964,3.61132
212,"Pjurmerend,Purmerein,Purmerend,bwrmyrand,pi er mo lun de,purumerento,pwileumeleonteu,pwrmrnd,Пурмеренд,Пюрмеренд,Պուրմերենդ,بورميراند,پورمرند,ปืร์เมอแร็นด์,プルメレント,皮爾默倫德,퓌르메런트",76745.0,806.54,Noord-Holland,Purmerend,52.505,4.95972
213,"Medioburgum,Middelbourg,Middelburch,Middelburg,Midehlburg,Midelb'org,Midelburg,Midelburgas,Midelburgo,Mintelmpourch,mdlbwrkh,mi de er bao,midelbwileuheu,mideruburufu,mydylbwrkh,Μίντελμπουρχ,Мидделбург,Миделбург,Миделбьорг,Мідделбург,Мідэлбург,مدلبورخ,ميديلبورخ,میدل‌بورخ,ミデルブルフ,米德尔堡,미델뷔르흐",46485.0,800.75,Zeeland,Middelburg,51.5,3.61389
214,None,None,802.68,Utrecht,Achterveld,52.13574,5.49656
215,None,None,796.89,Noord-Holland,Akersloot,52.55991,4.73203
216,None,None,783.38,Noord-Holland,West-Graftdijk,52.55432,4.79596
217,"QPT,Renen,Reynen,Rhenen,lei nen,rynn,Ренен,Ռեյնեն,رينن,رینن,雷嫩",18061.0,775.66,Utrecht,Rhenen,51.95917,5.56806
218,"'Ulst,Khjulst,xu er si te,Хюлст,許爾斯特",1405.0,769.87,Zeeland,Hulst,51.28,4.05278
219,"QVX,Veenendaal,Venendaal",61271.0,766.01,Utrecht,Veenendaal,52.02863,5.55891
220,"Zaomslag,zams lyg,زامس لیگ",2980.0,756.35,Zeeland,Zaamslag,51.3125,3.9125
221,"Volendam,Volendamas,fu lun dan,pollendam,wwlndm,Волендам,וולנדם,福伦丹,폴렌담",22000.0,742.84,Noord-Holland,Volendam,52.495,5.07083
222,Reuzel,7055.0,740.91,Noord-Brabant,Reusel,51.3625,5.16528
223,Best,29074.0,737.05,Noord-Brabant,Best,51.5075,5.39028
224,None,1245.0,747.0,Zeeland,Aagtekerke,51.54667,3.50972
225,"Neykerk,nai kai er ke,naykyrk,neikeoleukeu,neikeruku,Նեյկերկ,نايكيرك,ネイケルク,奈凱爾克,네이커르크",38335.0,749.21,Gelderland,Nijkerk,52.22,5.48611
226,"Neuzen,Terneuze,Terneuzen,Ternezen,Тернезен",27930.0,753.63,Zeeland,Terneuzen,51.33583,3.82778
227,Sint-Oedenrode,16931.0,763.58,Noord-Brabant,Sint-Oedenrode,51.5675,5.45972
228,"Edam,Ehdam,ai dan,edam,edamu,Едам,Эдам,エダム,埃丹,에담",7380.0,770.21,Noord-Holland,Edam,52.51215,5.04805
229,None,None,776.84,Noord-Brabant,Vessem,51.41925,5.28821
230,None,6090.0,796.73,Noord-Brabant,Nistelrode,51.70417,5.5625
231,"Bladel,bladl,Բլադել,بلادل",9785.0,816.63,Noord-Brabant,Bladel,51.36833,5.22083
232,None,None,828.235,Zeeland,Biggekerke,51.49571,3.52921
233,"Ehgmond-an-Zee,Эгмонд-ан-Зее",2505.0,839.84,Noord-Holland,Egmond aan Zee,52.6204,4.62705
234,None,1050.0,800.35,Gelderland,Doesburg,52.06667,5.61667
235,"Barneveld,Барневелд",28640.0,849.78,Gelderland,Barneveld,52.14,5.58472
236,"Flesinga,Flessinga,Flessingue,Flissingen,Flushing,Vlisingen,Vlissienge,Vlissinge,Vlissingen,flsnkn,flsnqn,flysnjn,fu li xin en,peullising-eon,Влиссинген,Флиссинген,Վլիսինգեն,فلسنقن,فلسنكن,فليسنجن,弗利辛恩,플리싱언",45273.0,853.1,Zeeland,Vlissingen,51.4425,3.57361
237,"Vechel,Vegel,Veghel,Vexel,Вегел,Վեխել",25352.0,863.05,Noord-Brabant,Veghel,51.61667,5.54861
238,None,12510.0,866.36,Gelderland,Lunteren,52.085,5.62222
239,"Scadewic,Schaaik,Schadewijk,Schaik,Schayk",5970.0,876.31,Noord-Brabant,Schaijk,51.74583,5.63194
240,None,1315.0,879.62,Zeeland,Zoutelande,51.50167,3.48472
241,"EWS,Vada,Vageningen,Vageningenas,Vaxeningen,Wageningen,vuaheningen,wa han ning en,wa he ning en,wakhnyngn,Вагенинген,Վախենինգեն,واخنینگن,ヴァーヘニンゲン,瓦罕寧恩,瓦赫寧恩",35433.0,899.52,Gelderland,Wageningen,51.97,5.66667
242,"EWS,Ede,Ehde,ede,Эде,エーデ",67670.0,912.78,Gelderland,Ede,52.03333,5.65833
243,"Alkmaar,Alkmaer,Alkmar,Alkmaras,a er ke ma er,alkeumaleu,alkmar,arukumaru,Άλκμααρ,Алкмаар,Алкмар,Ալկմար,אלקמאר,آلکمار,ألكمار,ئەڵکمار,アルクマール,阿尔克马尔,알크마르",94853.0,1007.39,Noord-Holland,Alkmaar,52.63167,4.74861
244,None,0.0,1001.5,Noord-Brabant,Son en Breugel,51.51654,5.49608
245,None,9710.0,983.84,Gelderland,Voorthuizen,52.18667,5.60556
246,"UDE,Uden,Уден",34601.0,980.89,Noord-Brabant,Uden,51.66083,5.61944
247,None,5340.0,966.17,Noord-Brabant,Veldhoven,51.41833,5.40278
248,None,None,960.28,Zeeland,Biervliet,51.32849,3.68542
249,None,4258.0,954.39,Gelderland,Ewijk,51.8833,5.7
250,"Eersel,Eyrsel,ayrsl,Էյրսել,إيرسل",18185.0,945.56,Noord-Brabant,Eersel,51.3575,5.31806
251,None,None,907.28,Noord-Holland,Bergen (NH),52.66726,4.69722
252,"Aintchofen,Ajndkhoven,Ajntoven,Ajntovën,EIN,Ehjndkhoven,Ehjndkhoven khot,Eindhove,Eindhoven,Eindhovena,Eindhovenas,Eindhoveno,Eindovia,Ejndgoven,Eyndhoven,a'indahovana,ai yin huo wen,aintohofen,ayndhwfn,ayndhwwn,eindhoveni,einteuhobeon,xind ho wen,yan hao fen,Αϊντχόφεν,Айндховен,Ајндховен,Ейндговен,Эйндховен,Эйндховен хот,Էյնդհովեն,איינדהובן,آئنڈھون,آيندهوفن,آیندهوون,اینتہوون,आइंडहोवन,ไอนด์โฮเวน,ეინდჰოვენი,アイントホーフェン,埃因霍温,燕豪芬,에인트호번",209620.0,877.84,Noord-Brabant,Eindhoven,51.44083,5.47778
253,None,19022.0,877.78,Flevoland,Zeewolde,52.33,5.54167
254,"Iezendieke,Ysendyck",1785.0,877.69,Zeeland,IJzendijke,51.32167,3.61667
255,Doornakkers,6345.0,890.33,Noord-Brabant,Doorn,51.43844,5.50887
256,Waalre,6445.0,877.39,Noord-Brabant,Waalre,51.38667,5.44444
257,None,1585.0,877.37,Noord-Holland,Spierdijk,52.65083,4.94306
258,"Sas,Sas de Gand,Sas fan Gent,sa si fan heng te,薩斯凡亨特",3856.0,877.34,Zeeland,Sas van Gent,51.2275,3.79861
259,None,2537.0,877.32,Zeeland,Groede,51.3789,3.5069
260,"Njunen,Nuenen,Нюнен",23223.0,877.28,Noord-Brabant,Nuenen,51.47,5.55278
261,None,1905.0,877.21,Noord-Holland,Berkhout,52.64083,5.00139
262,"Bergeijk,Bergeik",18181.0,877.15,Noord-Brabant,Bergeijk,51.31917,5.35833
263,None,6586.0,894.52,Noord-Holland,Schoorl,52.7014,4.6944
264,None,1635.0,876.98,Noord-Brabant,Westerhoven,51.3325,5.39583
265,None,22333.0,876.97,Noord-Brabant,Beek en Donk,51.5161,5.6208
266,None,5185.0,876.96,Noord-Brabant,Beek,51.5289,5.63382
267,None,1660.0,876.96,Gelderland,Valburg,51.91167,5.79028
268,Wolfheeze,1505.0,876.89,Gelderland,Wolfheze,52.00333,5.79028
269,None,5665.0,876.87,Noord-Holland,Noord-Scharwoude,52.69833,4.81111
270,"Gorn,Hoarn,Hoorn,Hoorn NH,Horn,Khorn,he en,holeun,horn,horun,hwrn,Горн,Хорн,Հորն,هورن,โฮร์น,ホールン,荷恩,호른",68852.0,876.85,Noord-Holland,Hoorn,52.6425,5.05972
271,"Valkenswaard,Valkeswaerd",31071.0,876.68,Noord-Brabant,Valkenswaard,51.35083,5.45972
272,None,40516.0,876.63,Gelderland,Harderwijk,52.34167,5.62083
273,None,792.0,876.62,Noord-Holland,Schellinkhout,52.6342,5.1203
274,"Gel'drop,Гельдроп",27900.0,876.54,Noord-Brabant,Geldrop,51.42167,5.55972
275,None,4140.0,876.52,Noord-Holland,Warmenhuizen,52.7225,4.7397
276,None,2340.0,903.1,Gelderland,Oosterhout,51.88,5.82639
277,"Oostburg,Ostburg,Wostburg,Wòstburg,Ôostburg,Остбург",4410.0,876.26,Zeeland,Oostburg,51.32583,3.4875
278,None,20488.0,876.24,Gelderland,Elst,51.91917,5.84167
279,"Osterbek,Остербек",11138.0,876.14,Gelderland,Oosterbeek,51.98583,5.84583
280,"Gelmond,Hellemed,Helmond,Helmondas,Hèllemed,Khelmond,hai er meng de,he lmxnd,helmonteu,herumonto,hlmwnd,hylmwnd,Гелмонд,Хелмонд,Հելմոնդ,هلموند,هيلموند,เฮลมอนด์,ヘルモント,海爾蒙德,헬몬트",74740.0,876.13,Noord-Brabant,Helmond,51.48167,5.66111
281,None,None,876.09,Zeeland,Cadzand,51.36634,3.41098
282,"Gemeen Nimwaege,Naimechen,Najmegen,Neimegena,Neimegenas,Nejmegen,Neymeyxen,Nijmegen,Nijmeyen,Nimega,Nimegen,Nimegue,Nimwege,Nimwegen,Nimègue,Nymegen,Nymwegen,Nîmegue,Nĳmegen,QNQ,Ulpia Noviomagus Batavorum,nai mei heng,naimehen,naymykhn,ne me ken,neimegeni,neimeheon,njmygan,nymykhn,nyymkn,Ναϊμέχεν,Наймеген,Најмеген,Неймеген,Նեյմեյխեն,ניימכן,نايميخن,نجمیگان,نیمیخن,เนเมเกน,ნეიმეგენი,ኔመሕን,ナイメーヘン,奈梅亨,네이메헌",158732.0,876.07,Gelderland,Nijmegen,51.8425,5.85278
283,None,1555.0,874.82,Noord-Holland,Oosterblokker,52.66917,5.11806
284,"LEY,Lelistad,Lelystad,lai li si ta de,Лелистад,لیلی‌استاد,莱利斯塔德",70741.0,874.41,Flevoland,Lelystad,52.50833,5.475
285,Heeze,9110.0,873.57,Noord-Brabant,Heeze,51.3828,5.57145
286,Tent,9160.0,873.16,Gelderland,Lent,51.86167,5.86667
287,None,None,872.74,Gelderland,Malden,51.7808,5.8544
288,"Wanrooi,Wanrooy,Wanroy",2340.0,871.08,Noord-Brabant,Wanroij,51.6575,5.81806
289,None,3490.0,869.0,Noord-Brabant,Leende,51.35083,5.55417
290,None,7828.0,866.92,Noord-Holland,Venhuizen,52.6624,5.2
291,"Arecanum,Arnem,Arnema,Arnheim,Arnhem,Arnhemas,Arnhemia,Arnhim,Arném,Gemeen Arnem,ZYM,a na mu,aleunheom,anemu,arnahema,arnemi,arnhm,arnm,Άρνεμ,Арнем,Արնհեմ,ארנהם,آرنم,آرنهم,آرنہم,आर्नहेम,არნემი,アーネム,阿纳姆,아른험",141674.0,860.68,Gelderland,Arnhem,51.98,5.91111
292,None,None,860.4,Noord-Holland,Sint Maartensvlotbrug,52.78631,4.70782
293,None,9358.0,859.84,Gelderland,Ubbergen,51.8333,5.9167
294,None,1949.0,859.01,Gelderland,Berg en Dal,51.82167,5.91667
295,None,None,857.35,Noord-Brabant,Sterksel,51.35124,5.61159
296,None,15782.0,856.93,Gelderland,Huissen,51.9333,5.9333
297,"Schagen,Skagen,Skhagen,Sxagen,si ha heng,Схаген,Շխագեն,斯哈亨",5910.0,856.1,Noord-Holland,Schagen,52.7875,4.79861
298,Twist,1115.0,855.27,Noord-Holland,Twisk,52.74083,5.05278
299,Groesbeek,18741.0,853.19,Gelderland,Groesbeek,51.77667,5.93611
300,None,1796.0,852.77,Noord-Holland,Grootebroek,52.6989,5.2189
301,"Roosendaal,Rosendaal",1485.0,909.93,Gelderland,Roosendaal,52.00583,5.9625
302,None,5439.0,879.48,Noord-Holland,Bovenkarspel,52.7,5.25
303,None,5635.0,848.61,Gelderland,Westervoort,51.95583,5.97222
304,Biddinghuizen,5010.0,847.78,Flevoland,Biddinghuizen,52.455,5.69306
305,"Someren,Zomere",10690.0,846.95,Noord-Brabant,Someren,51.385,5.71111
306,"Felp,wlp  khldrland,ولپ، خلدرلاند",17669.0,846.53,Gelderland,Velp,51.995,5.97361
307,Milsbeek bij Gennep,2055.0,845.7,Limburg,Gennep,51.725,5.94861
308,None,32362.0,841.12,Noord-Brabant,Deurne,51.4639,5.7947
309,"Budel,Buul",7895.0,844.45,Noord-Brabant,Budel,51.27167,5.575
310,"Enkhuizen,Enkhuze,Inkhuzen",17365.0,842.37,Noord-Holland,Enkhuizen,52.70333,5.29167
311,"Boc's Mere,Boksmaer,Boksmeer,Boxmeer,Meer,Mere",12407.0,839.04,Noord-Brabant,Boxmeer,51.64667,5.94722
312,None,3155.0,836.13,Noord-Holland,Middenmeer,52.80667,4.99861
313,"Apeldoarn,Apeldoorn,Apeldoorne,Apeldorn,Apeldornas,QYP,a po er duo lun,abldwrn,apeldoleun,aperudorun,apldwrn,epeladorna,xa phel dorn,Апелдорн,Ապելդորն,آبلدورن,آپلدورن,ایپلڈوم,एपेलडॉर्न,อาเพลโดร์น,აპელდორნი,アペルドールン,阿珀尔多伦,아펠도른",136670.0,826.56,Gelderland,Apeldoorn,52.21,5.96944
314,Doornspyk,1555.0,890.33,Gelderland,Doorn,52.41833,5.81806
315,"IJsselstein,Ysselsteyn",2260.0,908.31,Limburg,IJsselstein,51.49,5.89722
316,"Zevenar,Зевенар",26063.0,816.58,Gelderland,Zevenaar,51.93,6.07083
317,None,None,813.25,Noord-Holland,Julianadorp,52.8907,4.74461
318,None,None,811.58,Noord-Brabant,Vierlingsbeek,51.59644,6.00915
319,"Venraai,Venraij",39047.0,809.5,Limburg,Venray,51.525,5.975
320,"Nedervert,Nederweert,Neyderveyrt,Ni-jwieert,Ni-jwieërt,Недерверт,Նեյդերվեյրտ",7205.0,809.09,Limburg,Nederweert,51.28583,5.74861
321,"Vert,Weerd,Weert,Wieert,Wieërt,Верт",48662.0,807.84,Limburg,Weert,51.25167,5.70694
322,None,None,803.98,Gelderland,Teuge,52.23359,6.04666
323,"Ehpe,Эпе",33385.0,802.01,Gelderland,Epe,52.3475,5.98333
324,"Mael,Meiel",5180.0,799.93,Limburg,Meijel,51.34417,5.88472
325,"Brummen,Бруммен",21344.0,798.27,Gelderland,Brummen,52.09,6.15556
326,"DHR,De Helder,Den Helder,Den-Khelder,Der Helder,Helder,Le Helder,Nten Chelnter,deng hai er de,dn hldr,Ντεν Χέλντερ,Ден-Хелдер,Դեն Հելդեր,دن هلدر,デン・ヘルダー,登海尔德",59569.0,794.94,Noord-Holland,Den Helder,52.95988,4.75933
327,None,None,791.61,Limburg,Horst,51.4514,6.0536
328,"Tienraai,Tienray",1040.0,790.36,Limburg,Tienray,51.495,6.09306
329,None,1170.0,789.53,Limburg,Kelpen-Oler,51.21817,5.82602
330,"Zjutfen,Zutfen,Zutphen,Зютфен",36188.0,789.12,Gelderland,Zutphen,52.13833,6.20139
331,"Gemeen Kampen,Kampen,kambn,kampeon,kan peng,kanpen,qmpn,Кампен,Կամպեն,קמפן,كامبن,カンペン,坎彭,캄펀",48980.0,786.62,Overijssel,Kampen,52.555,5.91111
332,"Daventria,Deventer,Deventeris,Deyventer,Dimter,Gemeen Deventer,Gemeen Dèventer,QYV,dai fen te er,de wen texr,debenteoleu,defenteru,dfntr,Девентер,Դեյվենտեր,دفنتر,เดเวนเตอร์,デーフェンテル,代芬特尔,데벤터르",97331.0,784.54,Overijssel,Deventer,52.255,6.16389
333,None,10838.0,785.18,Overijssel,Diepenveen,52.2894,6.15
334,"Heijthuizen,Heithuizen,Heitse,Heythuizen,Heythuysen",6420.0,789.64,Limburg,Heythuysen,51.25,5.89861
335,None,3174.0,790.92,Flevoland,Ens,52.63667,5.82778
336,None,5530.0,795.38,Limburg,Helden,51.31917,6.0
337,"Ehmmelord,Emmeloard,Emmelord,ai mo luo er de,Еммелорд,Эммелорд,埃默洛爾德",46409.0,797.29,Flevoland,Emmeloord,52.71083,5.74861
338,"Doetinchem,Dutinkhem,Дутинхем",49906.0,798.57,Gelderland,Doetinchem,51.965,6.28889
339,None,1906.0,802.39,Limburg,Broekhuizen,51.4853,6.1633
340,"Hengelo (Gld),Hengeloo",4510.0,804.94,Gelderland,Hengelo,52.05083,6.30972
341,None,None,811.95,Friesland,Nijemirdum,52.85475,5.56607
342,"Gemeen Zwolle,Svolla,Swol,Zvole,Zvolle,Zvolė,Zwolle,ci wo lei,jeubolleo,jhvola,s wol lex,zfwlh,zi wo lei,zuvuore,zvole,zwwlh,Зволе,Зволле,Զվոլե,زفوله,زولے,زووله,झ्वोला,ซโวลเลอ,ზვოლე,ズヴォレ,兹沃勒,즈볼러",111805.0,815.78,Overijssel,Zwolle,52.5125,6.09444
343,Tegele,20190.0,887.9,Limburg,Tegelen,51.34417,6.13611
344,None,3305.0,901.02,Limburg,Herten,51.18083,5.9625
345,None,None,904.2950000000001,Overijssel,Heeten,52.31654,6.27323
346,None,None,907.57,Friesland,Hindeloopen,52.94262,5.40048
347,None,8690.0,920.69,Limburg,Swalmen,51.2333,6.0333
348,"Fenlo,VSN,Venlas,Venlo,Venlonum,Venloo,fen luo,fenro,fnlw,wynlw,Φένλο,Венло,فنلو,وینلو,フェンロー,芬洛",92403.0,822.94,Limburg,Venlo,51.37,6.16806
349,"Remunj,Reurmond,Roermond,Ruremonde,Rurmond,Rurmonda,Rurmondas,lu er meng de,rurumonto,rwrmwnd,Рурмонд,Рурмонда,رورموند,ルールモント,鲁尔蒙德",44975.0,933.8,Limburg,Roermond,51.19417,5.9875
350,None,2355.0,821.72,Limburg,Grevenbicht,51.03833,5.775
351,None,1730.0,918.02,Gelderland,Laren,52.19417,6.36528
352,"Asselt,Khasel't,Khasselt,ha se er te,Хасельт,Хасселт,哈瑟爾特",6959.0,816.83,Overijssel,Hasselt,52.59267,6.09527
353,Bor,2430.0,816.52,Limburg,Born,51.03167,5.80972
354,"Sitardas,Sittard,Zittert,sitaleuteu,sytard,xi ta de,Ситтард,سیتارد,錫塔德,시타르트",48400.0,808.58,Limburg,Sittard,50.99833,5.86944
355,"Gelaen,Gelen,Gelenas,he lun,khe len,Гелен,เคเลน,赫倫",32790.0,807.97,Limburg,Geleen,50.97417,5.82917
356,Echterbrug,1200.0,806.44,Fryslân,Echt,52.87141,5.82147
357,"Baek,Beek",8415.0,876.96,Limburg,Beek,50.94083,5.79722
358,None,5500.0,803.38,Limburg,Bunde,50.89667,5.73194
359,None,3785.0,802.47,Overijssel,Markelo,52.235,6.49861
360,None,2595.0,801.55,Limburg,Ulestraten,50.90583,5.78194
361,"MST,Maastricht,Maastrikht,Maastrykht,Maestricht,Mastrichtas,Mastrihta,Mastrikht,Mastrique,Mastrixt,Mestreech,Māstrihta,Traiectum Mosae,ma si te li he te,mas thrichth,maseuteuliheuteu,mastrikhta,mastrikt,mastrkht,mastrsht,mastrykht,masutorihito,Μάαστριχτ,Маастрихт,Маастрыхт,Мастрихт,Մաստրիխտ,מאסטריכט,ماسترخت,ماسترشت,ماستریخت,मास्ट्रिख्ट,மாஸ்ட்ரிக்ட்,มาสทริชท์,მაასტრიხტი,マーストリヒト,马斯特里赫特,마스트리흐트",122378.0,797.27,Limburg,Maastricht,50.84833,5.68889
362,"Oeesjbik,Oeësjbik,Oorsbeek",3600.0,798.01,Limburg,Oirsbeek,50.95083,5.90833
363,None,None,798.135,Friesland,Rohel,52.92471,5.82568
364,"Meppel,Меппел",30697.0,798.26,Drenthe,Meppel,52.69583,6.19444
365,None,26428.0,798.38,Overijssel,Rijssen,52.3,6.5167
366,"Nut,Nuth",4585.0,799.36,Limburg,Nuth,50.9175,5.88611
367,"Boalsert,Bolsvard,Bolsward,Gemeen Bolsward,bo er si wa de,bolseubaleuteu,borusuvuaruto,Болсвард,ボルスヴァルト,博尔斯瓦德,볼스바르트",9160.0,799.49,Fryslân,Bolsward,53.06555,5.53176
368,Sjilvend,4685.0,799.98,Limburg,Schinveld,50.96917,5.97917
369,None,None,800.35,Limburg,Bemelen,50.84726,5.7639
370,None,1365.0,800.6,Limburg,Wijnandsrade,50.90583,5.88333
371,"Gebrook,Hoensbrock,Khunsbruk,Хунсбрук",25000.0,801.33,Limburg,Hoensbroek,50.92387,5.92528
372,"Stienwyk,si teng wei ke,斯滕韋克",17138.0,801.58,Overijssel,Steenwijk,52.7875,6.12083
373,"Brjunssume,Broensem,Brunssum,Brunsum,Брюнссуме",29254.0,801.95,Limburg,Brunssum,50.94667,5.97083
374,"Vol'vega,Wolvega,Wolvegea,wo er fu ha,Вольвега,沃尔弗哈",12730.0,802.57,Fryslân,Wolvega,52.87545,5.99691
375,Bad Valkenburg,3400.0,874.45,Limburg,Valkenburg,50.86523,5.83205
376,None,None,839.495,Friesland,Rottum,52.93697,5.8935
377,None,1510.0,804.54,Overijssel,Hengevelde,52.19917,6.63611
378,None,1579.0,804.91,Limburg,Schin op Geul,50.8542,5.8694
379,Aldskoat,1590.0,805.15,Fryslân,Oudeschoot,52.93343,5.95579
380,"Heerenveen,Hereveen,It Hearrenfean,Kherenven,QYZ,Херенвен",43094.0,805.65,Fryslân,Heerenveen,52.95929,5.91854
381,None,1482.0,805.77,Limburg,Sint Geertruid,50.7964,5.7656
382,None,1085.0,806.51,Drenthe,Koekange,52.69917,6.31667
383,"Coriovalo,Heele,Heerlen,Heële,Kheerlen,Хеерлен",93084.0,807.37,Limburg,Heerlen,50.88365,5.98154
384,None,37591.0,807.98,Limburg,Landgraaf,50.9083,6.0297
385,Wielder,1960.0,808.18,Limburg,Wijlre,50.83333,5.89583
386,None,7769.0,811.22,Limburg,Wittem,50.8133,5.9122
387,"Almelo,Almeloo,QYL,Алмело",72725.0,811.63,Overijssel,Almelo,52.35667,6.6625
388,None,5954.0,811.83,Limburg,Eygelshoven,50.8925,6.0592
389,None,6920.0,812.24,Overijssel,Delden,52.26,6.71111
390,"Franeker,Frjentsjer,franykyr,fu la ne ke,Франекер,فرانيكير,弗拉訥克",12996.0,814.67,Fryslân,Franeker,53.18546,5.54123
391,"Kerkraad,Kerkrade,Kirchrath,Kirchroa,kerukurade,Керкраде,ケルクラーデ",49777.0,815.89,Limburg,Kerkrade,50.86583,6.0625
392,"Grou,Grouw",5535.0,816.91,Fryslân,Grou,53.09456,5.83745
393,None,None,817.31,Friesland,Jorwert,53.14522,5.71281
394,"Boorn,Borne,bwrnh,Борне,Բորնե,بورنه",20550.0,816.52,Overijssel,Born,52.30136,6.7482
395,"Hemgelo,Hengelo,Hengeloo,QYH",80809.0,804.94,Overijssel,Hengelo,52.26583,6.79306
396,"Hoogeveen,Khoogeveen,Хоогевеен",38754.0,818.73,Drenthe,Hoogeveen,52.7225,6.47639
397,"Hardenberg,Khardenberge,Stad-Hardenberg,ha deng bei he,Харденберге,هاردن‌برخ,哈登貝赫",57909.0,819.14,Overijssel,Hardenberg,52.57583,6.61944
398,"Tjummarum,Tsjummearum,Tzummarum",1205.0,819.75,Fryslân,Tzummarum,53.23733,5.54612
399,"Vaals,Vols",6970.0,820.96,Limburg,Vaals,50.77083,6.01806
400,None,None,823.2,Friesland,Warten,53.1504,5.89804
401,None,None,823.6,Friesland,Earnewâld,53.13223,5.94065
402,"ENS,Eanske,Ehnskhede,Ehnskhedeh,Enschede,Enschedė,Ensjedee,Enskede,Enskhede,Ensxeyde,Ynskedee,anskhdh,anskhydh,en si he de,enseuhedeo,enskhede,ensuhede,xen s kede,Енсхеде,Энсхеде,Энсхедэ,Էնշխեյդե,אנסחדה,إنسخيده,انسخده,انشیدے,ܐܢܫܟܕܐ,เอนสเกเด,ენსხედე,エンスヘーデ,恩斯赫德,엔스헤더",153655.0,824.82,Overijssel,Enschede,52.21833,6.89583
403,"L'ovet,LWR,Leeuwarden,Leewarden,Leuvardehn,Leuvarden,Leuvardena,Leuvardenas,Leyvarden,Lieuwarden,Liewarde,Liwwadden,Ljouwert,leiualeudeon,lew ar dein,liyuvardena,lu fa deng,lywwardn,rewaruden,Леуварден,Леўвардэн,Льовет,ليوواردن,لیوواردن,लीयुवार्डेन,เลวาร์เดิน,レーワルデン,吕伐登,레이우아르던",91424.0,825.98,Fryslân,Leeuwarden,53.20139,5.80859
404,Hoek,1100.0,826.36,Fryslân,Hoek,53.20455,5.80192
405,None,None,835.61,Friesland,Sumar,53.17861,6.00039
406,None,None,839.465,Groningen,De Wilp,53.11621,6.25305
407,None,None,843.32,Drenthe,Bovensmilde,52.97602,6.48145
408,None,None,843.69,Overijssel,Denekamp,52.3794,7.0089
409,None,None,851.02,Friesland,Blije,53.35201,5.8616
410,"Asen,Asenas,Asningseli,Asningsėli,Asse,Assen,a sen,aseon,asn,assen,xas sein,Άσσεν,Асен,Ассен,Ասսեն,آسن,أسن,อาสเซิน,アッセン,阿森,아선",62237.0,851.79,Drenthe,Assen,52.99667,6.5625
411,None,None,856.03,Groningen,Boerakker,53.18701,6.32931
412,None,3740.0,857.19,Drenthe,Rolde,52.98417,6.64861
413,None,None,858.34,Groningen,Tolbert,53.17345,6.36354
414,"Ehmmen,Emen,Emenas,Emme,Emmen,Emmeni vald,ai men,amn,aymyn,emen,emena,emeon,Емен,Еммен,Эммен,Էմմեն,אמן,إمن,إيمين,امن,एमेन,エメン,埃門,에먼",57010.0,859.11,Drenthe,Emmen,52.77917,6.90694
415,None,1495.0,867.21,Drenthe,Gasselte,52.97167,6.79444
416,None,None,871.06,Drenthe,Midlaren,53.11013,6.67696
417,None,None,871.44,Groningen,Noordlaren,53.12084,6.66676
418,None,None,872.6,Drenthe,Nieuw-Weerdinge,52.8574,6.98781
419,"Haren,Haren Gn,Kharen,ha lun,haryn,Харен,Հարեն,هارين,哈伦",9375.0,874.53,Groningen,Haren Gn,53.17209,6.60931
420,None,8130.0,874.91,Drenthe,Emmer-Compascuum,52.81167,7.04722
421,None,None,875.3,Groningen,Onnen,53.15765,6.64126
422,None,None,876.84,Groningen,Houwerzijl,53.33593,6.34146
423,"Chronin'nken,GRQ,Greunienge,Grins,Groninga,Groninge,Groningen,Groningena,Groningenas,Groningue,Grunneng,Gròninga,Qroningen,Vilojati Groningen,furoningen,furoningen shi,ge luo ning gen,groningeni,heuloning-eon,hrwnyngn,khrwnyngn,Χρόνινγκεν,Вилояти Гронинген,Гронинген,Гронінген,חרונינגן,خرونینگن,گروننگن شہر,გრონინგენი,フローニンゲン,フローニンゲン市,格罗宁根,흐로닝언",181194.0,877.61,Groningen,Groningen,53.21917,6.56667
424,None,2152.0,877.61,Groningen,Ezinge,53.3092,6.4431
425,None,1365.0,877.61,Groningen,Winsum,53.33,6.52083
426,Bedum,7765.0,877.61,Groningen,Bedum,53.30083,6.60278
427,"Zuidbreek,Zuidbrock,Zuidbruek",2255.0,877.61,Groningen,Zuidbroek,53.16333,6.86111
428,Ten Boer,4355.0,877.61,Groningen,Ten Boer,53.27583,6.69444
429,None,1665.0,877.61,Groningen,Noordbroek,53.195,6.87361
430,"Vinskhoten,Winschoten,Wynskoat,wen si huo teng,Винсхотен,溫斯霍滕",18506.0,877.61,Groningen,Winschoten,53.14417,7.03472
431,None,4935.0,877.61,Groningen,Uithuizen,53.4075,6.67083
432,None,12364.0,877.61,Groningen,Appingedam,53.32167,6.85833
433,"Uithuizermeden,Uithuizermeedum",2775.0,877.61,Groningen,Uithuizermeeden,53.41417,6.72361
434,None,None,877.61,Groningen,Godlinze,53.3726,6.81467
435,None,2185.0,877.61,Groningen,Farmsum,53.32167,6.92639
436,None,None,877.61,Groningen,Roodeschool,53.41983,6.76638
437,"Delfzejl,Delfzijl,Delfzyl,Делфзейл",28649.0,877.61,Groningen,Delfzijl,53.33,6.91806
438,Spijk Gn,1220.0,877.61,Groningen,Spijk,53.39,6.8375
439,None,None,877.61,Groningen,Termunterzijl,53.29898,7.03585
